[
{"name":"Antonio",
"address":"nelson 3580 esquina Florencio Escardó",
"street1":"Nelson",
"street2":"Florencio Escardó",
"coordinates":[-34.86220697774742, -56.18776772957476]
},
{"name":"Felipe",
"address":"Cavia 3033 entre Berro y Pimienta",
"street1":"Cavia",
"street2":"Pimienta",
"coordinates":[-34.913119772913575, -56.151567886322745]
},
{"name":"Guillermo",
"address":"Prudencio Vázquez y Vega 1134 esquian Baldomir",
"street1":"Prudencio Vázquez y Vega",
"street2":"Baldomir",
"coordinates":[-34.909262666474255, -56.161937452917584]
},
{"name":"Lucía",
"address":"Velsen 1234",
"street1":"Velsen",
"street2":"Calle B",
"coordinates":[-34.8955383, -56.1157761]
},

{"name":"Marcos",
"address":"Avenida Brasil 1234 esq. Libertad",
"street1":"Avenida Brasil",
"street2":"Libertad",
"coordinates":[-34.908593860421654, -56.154912685290064]
},
{"name":"Mauro",
"address":"Feliciano Rodríguez 2783 entre Espartero y Alarcón",
"street1":"Feliciano Rodriguez",
"street2":"Pedro de Alarcón",
"coordinates":[-34.90002422810493, -56.15499747026983]
}
]